City_ID,City,Lat,Lng,Max Temp,Humidity,Cloudiness,Wind Speed,Country,Date
0,utrik,11.2278,169.8474,26.08000000000004,86,100,9.95,MH,1706755342
1,saipan,15.1355,145.701,29.390000000000043,54,20,9.26,MP,1706754858
2,port-aux-francais,-49.35,70.2167,5.080000000000041,84,97,5.37,TF,1706755342
3,albany,42.6001,-73.9662,1.4800000000000182,85,100,0.84,US,1706755166
4,bethel,41.3712,-73.414,2.0500000000000114,80,100,0.45,US,1706755096
5,kolasin,42.8223,19.5165,-0.45999999999997954,51,41,0.98,ME,1706755343
6,robertsport,6.7533,-11.3686,27.379999999999995,83,72,3.33,LR,1706755343
7,ribeira grande,38.5167,-28.7,15.990000000000009,86,65,7.15,PT,1706755343
8,trudobelikovskiy,45.2686,38.1631,-0.39999999999997726,79,88,1.92,RU,1706755344
9,kumta,14.4167,74.4,23.510000000000048,75,93,1.34,IN,1706755344
10,puerto natales,-51.7236,-72.4875,8.240000000000009,85,99,1.14,CL,1706755344
11,punta arenas,-53.15,-70.9167,10.060000000000002,71,0,3.09,CL,1706755135
12,flying fish cove,-10.4217,105.6791,28.82000000000005,74,40,3.09,CX,1706755345
13,thompson,55.7435,-97.8558,-16.909999999999968,85,75,0.0,CA,1706755326
14,constantia,44.1833,28.65,-2.3899999999999864,66,9,2.91,RO,1706755345
15,tofol,5.3248,163.0078,27.410000000000025,83,100,10.19,FM,1706755345
16,edinburgh of the seven seas,-37.0676,-12.3116,17.620000000000005,78,98,5.3,SH,1706755297
17,petropavlovsk-kamchatsky,53.0452,158.6483,-13.639999999999986,62,40,2.68,RU,1706755346
18,labytnangi,66.6572,66.4183,-18.789999999999964,98,100,3.83,RU,1706755346
19,weno,7.4515,151.8468,27.970000000000027,78,100,4.63,FM,1706755346
20,chonchi,-42.6128,-73.8092,17.840000000000032,98,20,1.38,CL,1706755322
21,port macquarie,-31.4333,152.9167,29.379999999999995,63,14,4.13,AU,1706755347
22,saldanha,-33.0117,17.9442,17.03000000000003,94,5,5.17,ZA,1706755347
23,khorinsk,52.1657,109.7726,-25.75999999999999,93,45,0.77,RU,1706755347
24,la sarre,48.8002,-79.1996,0.29000000000002046,98,100,4.34,CA,1706755347
25,uturoa,-16.7333,-151.4333,28.5,77,83,5.47,PF,1706755348
26,georgetown,5.4112,100.3354,29.970000000000027,65,20,5.66,MY,1706755255
27,bechar,31.6167,-2.2167,7.180000000000007,49,0,1.03,DZ,1706755348
28,longyearbyen,78.2186,15.6401,-10.089999999999975,79,75,3.6,SJ,1706755348
29,al bawiti,28.3492,28.8659,6.5,86,6,5.85,EG,1706755348
30,port elizabeth,-33.918,25.5701,21.840000000000032,88,100,10.8,ZA,1706755349
31,mount gambier,-37.8333,140.7667,23.49000000000001,43,0,5.34,AU,1706755335
32,seven pagodas,12.6264,80.1722,26.03000000000003,80,95,1.0,IN,1706755349
33,jamestown,42.097,-79.2353,2.230000000000018,94,100,3.13,US,1706755349
34,crane,31.3974,-102.3501,14.990000000000009,41,100,5.06,US,1706755350
35,yellowknife,62.456,-114.3525,-10.70999999999998,92,75,4.12,CA,1706755350
36,adamstown,-25.066,-130.1015,24.950000000000045,80,9,6.29,PN,1706755350
37,andalgala,-27.5819,-66.3165,21.07000000000005,55,75,3.59,AR,1706755351
38,haiku-pauwela,20.9219,-156.3051,28.010000000000048,59,20,4.12,US,1706755351
39,tralee,52.2704,-9.7026,4.810000000000002,85,100,0.74,IE,1706755351
40,katabu,-4.9333,122.5167,31.04000000000002,63,100,4.04,ID,1706755351
41,port mathurin,-19.6833,63.4167,27.600000000000023,82,57,11.84,MU,1706755352
42,ushuaia,-54.8,-68.3,8.810000000000002,76,0,5.14,AR,1706755352
43,kapa'a,22.0752,-159.319,26.180000000000007,64,100,2.06,US,1706755323
44,qaqortoq,60.7167,-46.0333,-0.8100000000000023,98,100,7.01,GL,1706755353
45,olonkinbyen,70.9221,-8.7187,-6.5,64,100,12.14,SJ,1706755353
46,grytviken,-54.2811,-36.5092,5.020000000000039,63,84,4.17,GS,1706755253
47,grande prairie,55.1667,-118.8027,1.1000000000000227,86,75,1.54,CA,1706755101
48,ocean shores,46.9737,-124.1563,12.79000000000002,91,100,4.63,US,1706755353
49,kodiak,57.79,-152.4072,-3.269999999999982,68,40,3.09,US,1706755354
50,palikir - national government center,6.9248,158.1611,29.410000000000025,70,100,4.12,FM,1706755354
51,saint-pierre,-21.3393,55.4781,23.82000000000005,94,100,3.6,RE,1706755354
52,san juan de los morros,9.9115,-67.3538,26.160000000000025,67,97,1.69,VE,1706755355
53,abra pampa,-22.7205,-65.697,10.960000000000036,74,97,2.06,AR,1706755355
54,blackmans bay,-43.0167,147.3167,24.07000000000005,48,93,4.47,AU,1706755355
55,barra de santo antonio,-9.4047,-35.5072,26.600000000000023,87,31,1.39,BR,1706755355
56,waitangi,-43.9535,-176.5597,18.79000000000002,98,100,0.89,NZ,1706755321
57,nova sintra,14.8667,-24.7167,21.120000000000005,64,0,4.61,CV,1706755356
58,hawaiian paradise park,19.5933,-154.9731,26.129999999999995,76,75,2.06,US,1706755356
59,whitehorse,60.7161,-135.0538,-9.569999999999993,67,75,3.6,CA,1706755357
60,merrill,45.1805,-89.6835,4.400000000000034,97,0,0.0,US,1706755357
61,papatowai,-46.5619,169.4708,11.75,88,100,1.81,NZ,1706755357
62,brookings,44.3114,-96.7984,2.0,100,0,3.6,US,1706755357
63,olovyannaya,50.95,115.5667,-23.92999999999998,89,7,1.56,RU,1706755358
64,patterson,37.4716,-121.1297,15.970000000000027,76,100,8.75,US,1706755346
65,buncrana,55.1333,-7.45,6.32000000000005,81,96,6.08,IE,1706755358
66,santa luzia,-19.7697,-43.8514,20.189999999999998,89,100,6.17,BR,1706755358
67,lepsy,46.235,78.9456,-6.060000000000002,91,100,2.87,KZ,1706755359
68,bilibino,68.0546,166.4372,-39.819999999999965,98,30,1.71,RU,1706755359
69,berezovyy,51.6667,135.7,-17.74999999999997,75,100,0.61,RU,1706755359
70,murzuq,25.9155,13.9184,6.460000000000036,61,0,4.03,LY,1706755360
71,san pedro,14.35,121.0167,29.620000000000005,72,40,3.6,PH,1706755148
72,nantucket,41.2835,-70.0995,1.1200000000000045,69,100,1.54,US,1706755360
73,isafjordur,66.0755,-23.124,-5.649999999999977,76,93,6.32,IS,1706755257
74,waterford,42.7023,-83.4027,2.8000000000000114,88,100,7.2,US,1706755361
75,khor,47.8861,134.9464,-22.019999999999982,86,51,4.84,RU,1706755361
76,ghat,24.9647,10.1728,6.939999999999998,55,0,1.59,LY,1706755361
77,susuman,62.7833,148.1667,-25.569999999999965,99,100,0.89,RU,1706755361
78,acarau,-2.8856,-40.12,26.870000000000005,86,100,4.73,BR,1706755362
79,tikrit,34.6071,43.6782,8.79000000000002,68,79,2.8,IQ,1706755362
80,avarua,-21.2078,-159.775,28.03000000000003,74,100,1.03,CK,1706755354
81,college,64.8569,-147.8028,-32.52999999999997,59,0,0.0,US,1706755300
82,tahe,52.3333,124.7333,-15.42999999999995,62,13,3.47,CN,1706755363
83,invercargill,-46.4,168.35,15.57000000000005,66,100,2.24,NZ,1706755363
84,puerto deseado,-47.7503,-65.8938,14.800000000000011,86,70,6.93,AR,1706755363
85,tianpeng,30.9866,103.9393,7.260000000000048,50,32,2.01,CN,1706755363
86,golden hills,35.1425,-118.4904,12.020000000000039,37,100,8.49,US,1706755364
87,selfoss,63.9331,-20.9971,-3.859999999999957,97,99,1.28,IS,1706755364
88,sinegorskiy,48.0139,40.8447,-3.2999999999999545,90,95,2.18,RU,1706755364
89,lake mohawk,41.0184,-74.6602,1.7700000000000387,93,66,0.0,US,1706755364
90,jumla,29.2747,82.1838,1.2700000000000387,86,100,2.36,NP,1706755364
91,barcelos,41.5388,-8.6151,13.160000000000025,75,0,2.29,PT,1706755365
92,mili,6.0815,171.735,28.210000000000036,80,57,7.64,MH,1706755365
93,nabire,-3.3667,135.4833,30.600000000000023,67,41,2.87,ID,1706755365
94,payson,40.0444,-111.7321,10.879999999999995,49,0,6.69,US,1706755365
95,runing,33.0011,114.3542,-1.8199999999999932,90,100,7.11,CN,1706755366
96,rabo de peixe,37.8,-25.5833,17.77000000000004,99,20,2.06,PT,1706755366
97,tazovsky,67.4667,78.7,-20.48999999999998,97,95,5.66,RU,1706755366
98,opuwo,-18.0607,13.84,24.900000000000034,39,100,1.39,NA,1706755366
99,sandnessjoen,66.0217,12.6316,5.2900000000000205,90,100,21.52,NO,1706755366
100,cannonvale,-20.2833,148.7,27.660000000000025,69,100,2.07,AU,1706755367
101,thayetmyo,19.3167,95.1833,25.410000000000025,25,56,0.2,MM,1706755367
102,ilha de mocambique,-15.0342,40.7358,24.55000000000001,90,85,4.49,MZ,1706755367
103,margaret river,-33.95,115.0667,28.470000000000027,50,0,2.52,AU,1706755095
104,talnakh,69.4865,88.3972,-21.73999999999998,73,64,4.38,RU,1706755320
105,arkhara,49.4212,130.0842,-22.059999999999974,90,55,3.62,RU,1706755368
106,namtsy,62.7161,129.6658,-28.99999999999997,92,52,1.84,RU,1706755368
107,vila velha,-20.3297,-40.2925,25.970000000000027,96,75,1.03,BR,1706755368
108,secunda,-26.55,29.1667,14.07000000000005,96,43,0.45,ZA,1706755368
109,port alfred,-33.5906,26.891,20.100000000000023,95,100,2.24,ZA,1706755369
110,nema,57.5067,50.5011,-9.329999999999984,100,100,1.97,RU,1706755369
111,goure,13.9835,10.2704,15.720000000000027,26,0,5.09,NE,1706755369
112,wailua homesteads,22.0669,-159.378,25.439999999999998,64,100,2.06,US,1706755370
113,hermanus,-34.4187,19.2345,21.560000000000002,88,6,5.02,ZA,1706755370
114,zambezi,-13.5432,23.1047,17.660000000000025,97,66,1.67,ZM,1706755370
115,birobidzhan,48.8,132.95,-18.74999999999997,72,11,1.84,RU,1706755370
116,sao miguel do araguaia,-13.275,-50.1628,23.03000000000003,93,78,2.36,BR,1706755371
117,chardara,41.2547,67.9692,1.410000000000025,54,100,0.25,KZ,1706755371
118,west island,-12.1568,96.8225,29.99000000000001,74,75,3.09,CC,1706755371
119,dryden,49.7833,-92.7503,4.160000000000025,81,100,3.6,CA,1706755371
120,baiyin,36.5583,104.2081,-3.3700000000000045,78,88,1.11,CN,1706755372
121,iqaluit,63.7506,-68.5145,-35.14999999999998,61,0,4.63,CA,1706755293
122,puerto ayora,-0.7393,-90.3518,25.560000000000002,82,98,3.8,EC,1706755372
123,khandyga,62.6667,135.6,-30.399999999999977,92,100,0.96,RU,1706755372
124,sabang,5.8933,95.3214,27.860000000000014,73,72,7.95,ID,1706755373
125,kralendijk,12.15,-68.2667,26.99000000000001,83,53,4.63,BQ,1706755373
126,luninyets,52.2472,26.8047,1.490000000000009,99,100,5.1,BY,1706755373
127,tiksi,71.6872,128.8694,-21.819999999999965,97,36,3.12,RU,1706755373
128,hamilton,39.1834,-84.5333,4.430000000000007,84,100,2.57,US,1706754835
129,nar'yan-mar,67.6713,53.087,0.060000000000002274,93,100,9.39,RU,1706755374
130,xichang,27.8964,102.2634,10.54000000000002,49,1,1.49,CN,1706755374
131,tavda,58.0425,65.2726,-19.609999999999985,100,100,0.89,RU,1706755375
132,jawf al maqbabah,13.8378,45.8349,17.49000000000001,71,56,0.35,YE,1706755375
133,kailua-kona,19.6406,-155.9956,27.980000000000018,78,40,4.12,US,1706755375
134,baruun-urt,46.6806,113.2792,-26.92999999999998,95,67,4.55,MN,1706755376
135,tulun,54.5611,100.5792,-25.95999999999998,97,88,1.78,RU,1706755376
136,mount pleasant,32.7941,-79.8626,9.450000000000045,83,20,3.13,US,1706755376
137,veseli nad luznici,49.1843,14.6973,0.7400000000000091,90,37,2.16,CZ,1706755376
138,muisne,0.6,-80.0333,25.54000000000002,90,100,2.31,EC,1706755377
139,goundam,16.4145,-3.6708,19.970000000000027,19,100,4.72,ML,1706755377
140,shiqian,27.5225,108.2281,9.650000000000034,97,100,0.92,CN,1706755377
141,alice springs,-23.7,133.8833,34.56,13,3,7.2,AU,1706755377
142,iskateley,67.6803,53.1512,0.010000000000047748,93,100,9.39,RU,1706755377
143,yatou,37.15,122.3833,-1.7899999999999636,51,38,10.64,CN,1706755378
144,figuig (centre),32.1089,-1.2286,5.78000000000003,59,5,1.64,MA,1706755378
145,tidjikja,18.5564,-11.4271,18.340000000000032,14,100,5.48,MR,1706755378
146,santo antonio,-6.3106,-35.4789,23.879999999999995,80,0,2.66,BR,1706755379
147,guymon,36.6828,-101.4816,13.0,54,0,6.17,US,1706755125
148,sitka,57.0531,-135.33,1.9399999999999977,87,100,6.69,US,1706755380
149,konstantinovka,49.6167,127.9833,-15.20999999999998,72,10,3.34,RU,1706755380
150,bredasdorp,-34.5322,20.0403,20.360000000000014,84,20,3.3,ZA,1706755290
151,guilin,25.2819,110.2864,16.060000000000002,98,100,0.5,CN,1706755380
152,enewetak,11.3474,162.3373,26.680000000000007,79,47,10.2,MH,1706755381
153,puerto baquerizo moreno,-0.9,-89.6,25.600000000000023,83,98,5.07,EC,1706755303
154,happy valley-goose bay,53.3168,-60.3315,-16.829999999999984,55,20,6.69,CA,1706755381
155,bethanie,-26.4833,17.15,25.220000000000027,42,41,1.62,NA,1706755381
156,palmerston north,-40.35,175.6167,27.25,66,40,1.34,NZ,1706755382
157,fort st. john,56.2499,-120.8529,0.9399999999999977,75,100,3.6,CA,1706755265
158,cabo san lucas,22.8909,-109.9124,24.310000000000002,77,0,2.06,MX,1706755202
159,stanley,54.868,-1.6985,4.180000000000007,85,20,7.2,GB,1706755263
160,garissa,-0.4536,39.6401,24.879999999999995,80,98,2.31,KE,1706755382
161,las khorey,11.1595,48.1967,23.83000000000004,79,95,0.74,SO,1706755383
162,atafu village,-8.5421,-172.5159,29.200000000000045,71,59,3.65,TK,1706755383
163,markala,13.7021,-6.0659,23.189999999999998,18,99,4.51,ML,1706755384
164,touros,-5.1989,-35.4608,26.870000000000005,76,11,5.57,BR,1706755384
165,alaghsas,17.0187,8.0168,17.07000000000005,19,49,6.02,NE,1706755384
166,kapuskasing,49.4169,-82.4331,1.0500000000000114,93,100,4.63,CA,1706755384
167,vadso,70.0744,29.7487,-0.9099999999999682,93,100,7.72,NO,1706755385
168,nili,33.7218,66.1302,-5.329999999999984,53,0,2.85,AF,1706755385
169,paramonga,-10.6667,-77.8333,23.760000000000048,80,100,3.37,PE,1706755385
170,vila franca do campo,37.7167,-25.4333,18.27000000000004,99,43,3.52,PT,1706755324
171,kraslava,55.8951,27.168,0.07000000000005002,86,100,5.5,LV,1706755386
172,anadyr,64.75,177.4833,-21.71999999999997,71,40,8.0,RU,1706755386
173,bonanza,14.0289,-84.591,19.670000000000016,87,52,1.8,NI,1706755386
174,kingston,17.997,-76.7936,25.53000000000003,82,40,7.72,JM,1706755364
175,fale old settlement,-9.3852,-171.2468,27.470000000000027,82,99,5.06,TK,1706755387
176,geraldton,-28.7667,114.6,43.23000000000002,11,0,8.75,AU,1706755387
177,howard springs,-12.497,131.047,31.600000000000023,74,100,4.69,AU,1706755387
178,alta,69.9689,23.2717,-0.40999999999996817,76,40,4.63,NO,1706755388
179,jining,35.405,116.5814,-1.42999999999995,58,98,5.66,CN,1706755388
180,saint-philippe,-21.3585,55.7679,23.77000000000004,88,96,6.81,RE,1706755388
181,summerland,49.5998,-119.6691,6.810000000000002,93,100,5.14,CA,1706755388
182,agria,47.9026,20.3733,0.020000000000038654,79,60,1.68,HU,1706755389
183,ushtobe,45.2514,77.9838,-5.609999999999957,86,100,1.75,KZ,1706755389
184,darovskoy,58.77,47.9564,-15.479999999999961,100,100,1.72,RU,1706755389
185,yola,9.2,12.4833,21.640000000000043,26,86,1.13,NG,1706755208
186,jinchang,38.4953,102.1739,-4.310000000000002,82,99,1.8,CN,1706755390
187,ormara,25.2088,64.6357,20.170000000000016,32,1,3.69,PK,1706755390
188,malvan,16.0667,73.4667,22.510000000000048,72,16,2.58,IN,1706755390
189,zhigalovo,54.8097,105.1578,-28.369999999999976,95,81,0.08,RU,1706755391
190,taoudenni,22.6783,-3.9836,17.410000000000025,25,0,5.52,ML,1706755391
191,praia da vitoria,38.7333,-27.0667,15.420000000000016,94,75,4.06,PT,1706755392
192,veinticinco de mayo,-35.4323,-60.1727,28.32000000000005,50,0,1.79,AR,1706755392
193,ylitornio,66.3089,23.6773,-0.01999999999998181,97,100,6.78,FI,1706755392
194,madang,-5.2246,145.7966,31.650000000000034,63,67,2.62,PG,1706755393
195,nelson,-41.2833,173.2833,24.05000000000001,63,10,2.24,NZ,1706755354
196,hasaki,35.7333,140.8333,17.939999999999998,59,14,2.32,JP,1706755393
197,mejit,10.2753,170.8646,26.910000000000025,84,100,8.22,MH,1706755393
198,coari,-4.085,-63.1414,24.110000000000014,98,100,1.26,BR,1706755393
199,avenal,36.0041,-120.129,14.430000000000007,43,100,9.53,US,1706755324
200,sylva,58.0348,56.7635,-3.349999999999966,98,100,1.01,RU,1706755394
201,udachny,66.4167,112.4,-30.029999999999973,100,93,1.6,RU,1706755394
202,fabens,31.5023,-106.1586,18.600000000000023,49,0,3.87,US,1706755395
203,moose jaw,50.4001,-105.5344,0.1400000000000432,93,49,3.09,CA,1706755395
204,portland,45.5234,-122.6762,12.050000000000011,86,75,5.14,US,1706755206
205,tinajo,29.0788,-13.7081,18.49000000000001,68,0,4.12,ES,1706755395
206,camiri,-20.05,-63.5167,25.610000000000014,50,88,1.52,BO,1706755396
207,leeton,-34.5667,146.4,31.720000000000027,17,1,3.79,AU,1706755396
208,candido mendes,-1.4467,-45.7167,24.950000000000045,96,96,1.25,BR,1706755396
209,wainwright,52.839,-110.8572,2.0200000000000387,79,95,6.67,CA,1706755396
210,gadzhiyevo,69.2551,33.3362,-0.14999999999997726,92,100,11.82,RU,1706755356
211,east london,-33.0153,27.9116,22.640000000000043,88,46,5.85,ZA,1706755397
212,sao felix do xingu,-6.6447,-51.995,22.77000000000004,97,100,0.76,BR,1706755397
213,palencia,42.4167,-4.5,6.910000000000025,67,3,2.5,ES,1706755397
214,avellaneda,-29.1176,-59.6583,24.510000000000048,61,4,3.2,AR,1706755398
215,luderitz,-26.6481,15.1594,20.30000000000001,71,57,7.71,NA,1706755398
216,carnarvon,-24.8667,113.6333,33.150000000000034,48,17,2.74,AU,1706755398
217,baki,-7.6128,110.7839,29.430000000000007,70,88,1.45,ID,1706755399
218,manismata,-2.4667,111.0333,28.110000000000014,77,100,0.75,ID,1706755399
219,juneau,58.3019,-134.4197,-0.8799999999999955,97,100,3.09,US,1706755399
220,ilulissat,69.2167,-51.1,-19.98999999999998,71,40,2.57,GL,1706755399
221,daru,-9.0763,143.2092,31.78000000000003,62,62,3.94,PG,1706755400
222,bom jesus,-9.0744,-44.3586,25.0,73,79,0.98,BR,1706755400
223,moshkovo,55.3053,83.6104,-9.739999999999952,94,89,3.88,RU,1706755400
224,rabaul,-4.1967,152.1721,29.220000000000027,75,70,7.89,PG,1706755401
225,kalmunai,7.4167,81.8167,26.370000000000005,82,91,0.78,LK,1706755401
226,mikashevichy,52.2173,27.476,1.5500000000000114,98,100,5.31,BY,1706755401
227,ballito,-29.539,31.2144,21.08000000000004,94,0,2.06,ZA,1706755401
228,paracuru,-3.41,-39.0306,28.950000000000045,85,64,3.75,BR,1706755287
229,swan hill,-35.3378,143.5544,29.980000000000018,21,0,4.95,AU,1706755402
230,yuzhno-kurilsk,44.0306,145.8556,-2.009999999999991,71,36,14.14,RU,1706755402
231,st. john's,47.5649,-52.7093,-7.339999999999975,85,0,7.2,CA,1706755182
232,vostochnyy,55.8167,37.8667,0.21000000000003638,98,100,2.84,RU,1706755402
233,mach,29.8637,67.3298,7.57000000000005,39,0,5.7,PK,1706755403
234,teknaf,20.8624,92.3058,22.160000000000025,41,0,0.96,BD,1706755403
235,tura,25.5198,90.2201,20.75,44,0,0.14,IN,1706755403
236,pyin oo lwin,22.0333,96.4667,19.100000000000023,41,18,0.19,MM,1706755403
237,lompoc,34.6391,-120.4579,15.990000000000009,81,100,7.2,US,1706755404
238,rasony,55.9089,28.8126,-0.22999999999996135,85,100,5.04,BY,1706755404
239,kupjansk,49.7209,37.5998,-1.1299999999999955,82,100,3.95,UA,1706755404
240,lihue,21.9789,-159.3672,25.77000000000004,63,100,2.06,US,1706755404
241,antalaha,-14.9003,50.2788,23.860000000000014,87,34,2.16,MG,1706755405
242,mutuali,-14.8706,37.0044,18.99000000000001,94,100,1.31,MZ,1706755405
243,beichengqu,40.4394,113.1536,-10.620000000000005,56,100,0.53,CN,1706755405
244,crete,35.1558,24.895,3.5600000000000023,73,97,4.8,GR,1706755405
245,kavaratti,10.5669,72.642,27.400000000000034,72,90,5.5,IN,1706755406
246,buka,40.8108,69.1986,0.4399999999999977,65,100,1.93,UZ,1706755406
247,voi,-3.3945,38.563,21.470000000000027,91,100,0.78,KE,1706755406
248,pematangsiantar,2.9595,99.0687,26.82000000000005,77,75,1.26,ID,1706755406
249,broome,42.2506,-75.833,1.6100000000000136,89,100,2.57,US,1706755407
250,olyokminsk,60.3736,120.4264,-20.659999999999968,90,100,2.59,RU,1706755407
251,villa yapacani,-17.4,-63.8333,25.689999999999998,67,3,1.57,BO,1706755407
252,harstad,68.799,16.5293,4.660000000000025,96,77,15.2,NO,1706755408
253,ust-nera,64.5667,143.2,-24.119999999999976,100,100,1.93,RU,1706755408
254,kone,-21.0595,164.8658,28.970000000000027,74,88,0.41,NC,1706755408
255,sotkamo,64.1333,28.4167,0.010000000000047748,94,100,7.55,FI,1706755408
256,viedma,-40.8135,-62.9967,20.680000000000007,64,17,3.86,AR,1706755409
257,toliara,-23.35,43.6667,25.970000000000027,65,3,4.47,MG,1706755409
258,hithadhoo,-0.6,73.0833,27.860000000000014,76,69,4.65,MV,1706755409
259,peniche,39.3558,-9.3811,12.470000000000027,93,2,3.05,PT,1706755409
260,mutsu,41.2894,141.2169,-3.9899999999999523,58,75,7.2,JP,1706755410
261,arraial do cabo,-22.9661,-42.0278,25.25,90,100,0.23,BR,1706755410
262,tirlyanskiy,54.2109,58.5806,-14.329999999999984,100,81,1.67,RU,1706755410
263,jayapura,-2.5333,140.7,31.660000000000025,72,96,4.49,ID,1706755410
264,minas de marcona,-15.2119,-75.1103,18.360000000000014,80,93,3.94,PE,1706755411
265,amherst,41.3978,-82.2224,3.230000000000018,89,52,0.89,US,1706755411
266,lebu,-37.6167,-73.65,15.140000000000043,91,27,4.48,CL,1706755411
267,colby,39.3958,-101.0524,9.439999999999998,64,0,3.13,US,1706755412
268,santa cruz,-17.8,-63.1667,27.700000000000045,78,3,3.09,BO,1706755382
269,khorugh,37.4897,71.553,-21.21999999999997,87,75,0.34,TJ,1706755412
270,nizhneangarsk,55.7833,109.55,-23.069999999999965,73,56,0.92,RU,1706755413
271,severo-yeniseyskiy,60.3725,93.0408,-30.23999999999998,95,98,1.79,RU,1706755413
272,inderbor,48.55,51.7833,-7.859999999999957,86,100,3.49,KZ,1706755413
273,filadelfia,39.9523,-75.1638,4.939999999999998,82,100,1.54,US,1706755181
274,wladyslawowo,54.7909,18.4009,3.3000000000000114,78,100,10.96,PL,1706755414
275,ta`u,-14.2336,-169.5144,28.99000000000001,67,100,0.75,AS,1706755414
276,chackbay,29.8835,-90.7973,15.0,67,100,0.45,US,1706755414
277,zinjibar,13.1287,45.3807,22.890000000000043,78,32,2.04,YE,1706755415
278,balung,-7.7333,113.9167,30.30000000000001,67,100,1.62,ID,1706755415
279,itoman,26.1247,127.6694,25.430000000000007,72,40,5.66,JP,1706755415
280,klyuchi,52.2667,79.1667,-12.479999999999961,92,64,3.41,RU,1706755415
281,beaufort west,-32.3567,22.583,22.930000000000007,49,12,1.31,ZA,1706755416
282,san sebastian de la gomera,28.0916,-17.1133,22.200000000000045,19,0,4.12,ES,1706755416
283,oban,56.4127,-5.4706,6.8799999999999955,77,80,7.86,GB,1706755416
284,katsuura,35.1333,140.3,14.010000000000048,58,71,4.14,JP,1706755417
285,ambon,-3.6954,128.1814,32.08000000000004,70,40,3.6,ID,1706755417
286,kismayo,-0.3582,42.5454,26.090000000000032,89,98,5.82,SO,1706755417
287,gamba,-2.65,10.0,24.32000000000005,92,100,1.74,GA,1706755417
288,wenling,28.3669,121.36,16.100000000000023,92,94,3.91,CN,1706755418
289,nogliki,51.8333,143.1667,-20.369999999999976,91,89,4.02,RU,1706755418
290,natitingou,10.3042,1.3796,23.960000000000036,21,5,3.74,BJ,1706755418
291,fada,9.5667,8.3,19.52000000000004,25,69,3.29,NG,1706755418
292,belmonte,-15.8631,-38.8828,24.55000000000001,86,100,2.32,BR,1706755418
293,dapa,9.7594,126.0531,26.100000000000023,86,100,5.63,PH,1706755419
294,puerto el triunfo,13.2833,-88.55,28.510000000000048,63,11,1.88,SV,1706755419
295,vorgashor,67.5833,63.95,-9.879999999999995,95,100,7.2,RU,1706755419
296,cestos city,5.46,-9.5828,26.82000000000005,85,53,3.27,LR,1706755419
297,carbonear,47.7332,-53.2148,-5.919999999999959,75,7,4.32,CA,1706755420
298,la cabucelle,43.3341,5.3618,8.689999999999998,95,100,1.54,FR,1706755420
299,milagros,12.2181,123.5095,28.310000000000002,62,99,7.21,PH,1706755420
300,dokkum,53.3222,5.997,7.020000000000039,87,59,5.14,NL,1706755420
301,burutu,5.3509,5.5076,26.08000000000004,93,74,2.01,NG,1706755421
302,mammoth lakes,37.6485,-118.9721,4.400000000000034,72,100,5.14,US,1706755421
303,sosnovo-ozerskoye,52.5249,111.5418,-25.95999999999998,94,78,1.53,RU,1706755421
304,hinton,53.4001,-117.5857,2.9399999999999977,89,100,3.48,CA,1706755168
305,fortuna,40.5982,-124.1573,10.370000000000005,91,100,8.23,US,1706755421
306,manokwari,-0.8667,134.0833,28.27000000000004,76,79,2.05,ID,1706755422
307,poronaysk,49.2167,143.1167,-15.599999999999966,78,24,7.06,RU,1706755422
308,cam ranh,11.9214,109.1591,27.980000000000018,65,0,3.09,VN,1706755422
309,remire-montjoly,4.9167,-52.2667,27.02000000000004,78,40,3.09,GF,1706755422
310,el salto,20.3333,-104.5,14.110000000000014,90,100,1.27,MX,1706755423
311,la plata,-34.9215,-57.9545,30.460000000000036,49,3,2.74,AR,1706755320
312,prince rupert,54.3161,-130.3201,10.050000000000011,87,100,8.75,CA,1706755423
313,yol,32.1667,76.2,10.240000000000009,85,100,2.75,IN,1706755423
314,dudinka,69.4058,86.1778,-20.17999999999998,84,87,9.39,RU,1706755423
315,karratha,-20.7377,116.8463,32.960000000000036,54,89,6.49,AU,1706755424
316,suva,-18.1416,178.4415,31.710000000000036,70,40,2.57,FJ,1706755424
317,ocosingo,17.0667,-92.25,13.710000000000036,99,100,0.55,MX,1706755424
318,mil'kovo,55.6078,37.7956,0.3300000000000409,96,100,3.54,RU,1706755424
319,labrador city,52.9463,-66.9114,-23.049999999999983,59,0,3.09,CA,1706755211
320,upata,8.0086,-62.3989,23.600000000000023,79,78,2.75,VE,1706755425
321,port blair,11.6667,92.75,29.02000000000004,74,20,2.06,IN,1706755425
322,tazacorte,28.629,-17.9293,21.75,19,0,3.6,ES,1706755425
323,lorengau,-2.0226,147.2712,29.55000000000001,74,62,6.62,PG,1706755425
324,fukuecho,32.6881,128.8419,13.200000000000045,94,75,3.09,JP,1706755426
325,maralal,1.0968,36.698,15.490000000000009,74,96,3.03,KE,1706755426
326,tyukhtet,56.5389,89.3011,-17.369999999999976,95,98,1.96,RU,1706755426
327,suntar,62.1444,117.6319,-24.43999999999997,97,100,1.52,RU,1706755426
328,kill devil hills,36.0307,-75.676,7.0,79,100,8.75,US,1706755427
329,moab,38.5733,-109.5498,10.830000000000041,56,0,1.33,US,1706755286
330,porto novo,6.4965,2.6036,27.900000000000034,88,55,1.62,BJ,1706755234
331,korosladany,46.9667,21.0833,1.5,74,88,2.36,HU,1706755427
332,colonel hill,22.7667,-74.2167,23.160000000000025,63,44,6.47,BS,1706755428
333,xiongzhou,25.1167,114.3,24.439999999999998,67,22,1.88,CN,1706755428
334,badger,64.8,-147.5333,-32.859999999999985,66,20,0.0,US,1706755428
335,thunder bay,48.4001,-89.3168,-0.009999999999990905,100,20,2.57,CA,1706755303
336,roma,43.2128,-75.4557,2.5400000000000205,85,100,1.54,US,1706755428
337,bonab,37.3404,46.0561,-0.75,80,75,1.03,IR,1706755429
338,stabat,3.761,98.4513,28.99000000000001,65,90,1.34,ID,1706755429
339,bamboo flat,11.7,92.7167,29.05000000000001,74,20,2.06,IN,1706755429
340,port douglas,-16.4833,145.4667,29.78000000000003,76,88,1.53,AU,1706755429
341,whitby,54.4877,-0.615,4.930000000000007,79,7,2.68,GB,1706755430
342,antigonish,45.6169,-61.9986,-5.099999999999966,91,9,2.99,CA,1706755430
343,kasongo,-4.45,26.6667,20.120000000000005,88,100,1.14,CD,1706755430
344,oodweyne,9.4092,45.064,17.700000000000045,79,60,0.96,SO,1706755430
345,new norfolk,-42.7826,147.0587,24.720000000000027,48,96,6.83,AU,1706755431
346,numata,36.6333,139.05,10.629999999999995,33,47,5.47,JP,1706755431
347,shingu,33.7333,135.9833,15.730000000000018,67,71,0.79,JP,1706755431
348,tokar,18.4254,37.729,21.970000000000027,69,100,4.9,SD,1706755431
349,miguel ahumada,30.6167,-106.5167,15.310000000000002,54,21,1.43,MX,1706755432
350,kargasok,59.0556,80.8572,-17.23999999999998,97,100,3.13,RU,1706755432
351,okhotsk,59.3833,143.3,-17.859999999999985,77,100,6.04,RU,1706755432
352,i-n-salah,27.1935,2.4607,13.29000000000002,29,0,9.01,DZ,1706755432
353,urzhum,57.1141,49.9996,-14.889999999999986,100,100,2.03,RU,1706755433
354,mbuji-mayi,-6.15,23.6,21.110000000000014,93,100,1.4,CD,1706755433
355,hobyo,5.3505,48.5268,25.200000000000045,81,100,5.54,SO,1706755433
356,aragarcas,-15.8975,-52.2508,22.430000000000007,90,9,1.21,BR,1706755433
357,nemuro,43.3236,145.575,-3.2199999999999704,53,14,14.19,JP,1706755434
358,coruripe,-10.1256,-36.1756,25.310000000000002,90,13,1.59,BR,1706755434
359,korla,41.7597,86.1469,-4.060000000000002,69,100,2.43,CN,1706755434
360,igarka,67.4667,86.5833,-18.619999999999976,95,98,8.23,RU,1706755434
361,bataipora,-22.2953,-53.2711,23.950000000000045,56,0,0.28,BR,1706755435
362,kirensk,57.7853,108.1119,-25.159999999999968,94,100,0.86,RU,1706755435
363,vernon,50.2581,-119.2691,7.390000000000043,96,100,0.51,CA,1706755435
364,polyarnyy,69.1989,33.4478,0.1400000000000432,91,100,12.14,RU,1706755377
365,la passe,45.5549,-0.8967,8.879999999999995,86,100,1.25,FR,1706755435
366,namibe,-15.1961,12.1522,24.33000000000004,89,92,2.52,AO,1706755436
367,colonia,50.9333,6.95,8.920000000000016,86,100,5.14,DE,1706755436
368,kodinsk,58.6881,99.1844,-27.44999999999999,98,68,0.82,RU,1706755436
369,aweil,8.7682,27.4002,21.370000000000005,20,80,3.97,SS,1706755437
370,ust'-kulom,61.6864,53.6902,-15.75,99,95,1.38,RU,1706755437
371,sierra vista,31.5545,-110.3037,15.03000000000003,48,40,3.09,US,1706755437
372,dera bugti,29.0307,69.151,13.07000000000005,34,0,3.16,PK,1706755437
373,kijang,35.2442,129.2139,7.850000000000023,80,100,6.08,KR,1706755438
374,kosigi,15.85,77.2667,22.650000000000034,38,50,2.52,IN,1706755438
375,tamanrasset,22.785,5.5228,9.950000000000045,23,0,8.23,DZ,1706755438
376,santa rosa,14.3122,121.1114,30.05000000000001,78,89,6.33,PH,1706755438
377,champerico,14.3,-91.9167,26.810000000000002,76,72,1.89,GT,1706755438
378,cortland,42.6001,-76.083,1.670000000000016,89,100,2.57,US,1706755439
379,ciudad lazaro cardenas,17.9583,-102.2,25.970000000000027,77,100,0.74,MX,1706755439
380,tolanaro,-25.0319,46.9987,23.78000000000003,87,100,6.0,MG,1706755439
381,pankrushikha,53.8319,80.3406,-7.8700000000000045,94,97,4.58,RU,1706755218
382,el porvenir,13.7617,-87.3458,20.629999999999995,69,1,3.46,HN,1706755440
383,papao,-17.75,-149.55,27.82000000000005,81,19,5.3,PF,1706755440
384,doaba,33.4244,70.7364,6.32000000000005,61,1,1.69,PK,1706755440
385,sisimiut,66.9395,-53.6735,-22.659999999999968,98,98,5.88,GL,1706755440
386,bengkulu,-3.8004,102.2655,26.83000000000004,80,100,0.75,ID,1706755440
387,taltal,-25.4,-70.4833,20.04000000000002,87,24,0.62,CL,1706755220
388,ceylanpinar,36.8472,40.05,3.180000000000007,65,98,3.29,TR,1706755441
389,raduzhny,62.0961,77.475,-13.339999999999975,93,100,4.56,RU,1706755441
390,reguiba,33.5639,6.7033,7.03000000000003,76,0,2.57,DZ,1706755441
391,porto seguro,-16.4497,-39.0647,25.29000000000002,88,75,2.57,BR,1706755442
392,martapura,-3.4167,114.85,28.05000000000001,83,20,1.54,ID,1706755442
393,dubbo,-32.25,148.6167,33.07000000000005,40,40,3.6,AU,1706755442
394,tucuma,-0.1833,-50.05,24.78000000000003,93,98,2.58,BR,1706755442
395,iquique,-20.2208,-70.1431,23.02000000000004,78,39,1.13,CL,1706755443
396,cizre,37.3272,42.1903,3.5600000000000023,93,40,3.6,TR,1706755443
397,novyy urgal,51.0736,132.5642,-25.909999999999968,83,50,0.46,RU,1706755443
398,prado,-17.3411,-39.2208,24.450000000000045,92,94,2.96,BR,1706755301
399,lerwick,60.1545,-1.1494,5.0,70,63,17.97,GB,1706755443
400,horta,38.5333,-28.6333,15.57000000000005,84,53,7.15,PT,1706755444
401,saudarkrokur,65.7461,-19.6394,-7.759999999999991,87,92,6.75,IS,1706755444
402,'ain el melh,34.8415,4.1638,6.890000000000043,69,70,1.25,DZ,1706755444
403,kargil,34.5667,76.1,-8.20999999999998,88,100,1.73,IN,1706755444
404,walvis bay,-22.9575,14.5053,18.53000000000003,94,93,0.0,NA,1706755340
405,glace bay,46.1969,-59.957,-6.899999999999977,83,6,5.92,CA,1706755445
406,ts'khinvali,42.2276,43.9686,-4.1299999999999955,76,35,2.05,GE,1706755445
407,magadan,59.5667,150.8,-18.039999999999964,78,54,3.16,RU,1706755445
408,pasuquin,18.3328,120.6177,28.970000000000027,58,40,1.54,PH,1706755446
409,ceiba,18.4463,-66.3507,23.120000000000005,98,58,0.89,PR,1706755446
410,yarmouth,41.7057,-70.2286,1.2600000000000477,83,100,2.06,US,1706755446
411,mar del plata,-38.0023,-57.5575,26.010000000000048,50,0,3.09,AR,1706755204
412,puerto armuelles,8.2833,-82.8667,28.99000000000001,59,42,0.45,PA,1706755432
413,vilassar de mar,41.5096,2.3937,12.660000000000025,75,9,1.79,ES,1706755447
414,port isabel,26.0734,-97.2086,17.25,82,0,4.12,US,1706755425
415,newman,37.3138,-121.0208,15.990000000000009,76,100,5.36,US,1706755308
416,tabou,4.423,-7.3528,26.980000000000018,83,33,2.84,CI,1706755448
417,kochi,9.9399,76.2602,28.340000000000032,77,76,3.35,IN,1706755304
418,andapa,-14.65,49.65,20.08000000000004,97,32,1.48,MG,1706755448
419,vennesla,58.2694,7.9741,4.0400000000000205,78,75,8.23,NO,1706755449
420,beitbridge,-22.2167,30.0,21.0,76,36,7.63,ZW,1706755449
421,sinabang,2.4803,96.3801,28.870000000000005,72,92,0.3,ID,1706755449
422,archangelos,36.2149,28.1149,11.840000000000032,63,24,2.22,GR,1706755450
423,ca mau,9.1769,105.15,30.33000000000004,55,99,4.06,VN,1706755450
424,hadibu,12.65,54.0333,23.600000000000023,82,46,2.78,YE,1706755450
425,aasiaat,68.7098,-52.8699,-25.869999999999976,98,87,5.11,GL,1706755450
426,necochea,-38.5473,-58.7368,26.350000000000023,38,59,7.49,AR,1706755451
427,kruisfontein,-34.0033,24.7314,19.260000000000048,88,70,3.95,ZA,1706755451
428,levuka,50.1834,-105.4011,0.9000000000000341,73,40,3.45,CA,1706755451
429,qinhuangdao,39.9317,119.5883,-5.810000000000002,21,100,3.77,CN,1706755451
430,la ronge,55.1001,-105.2842,2.140000000000043,80,20,3.6,CA,1706755452
431,seymour,38.9592,-85.8903,3.8500000000000227,86,3,2.49,US,1706755452
432,sucre,-19.0333,-65.2627,15.050000000000011,70,98,1.44,BO,1706754871
433,codrington,-38.2667,141.9667,22.99000000000001,49,0,8.56,AU,1706755452
434,shubarshi,48.5872,57.1869,-10.45999999999998,96,98,3.88,KZ,1706755453
435,salima,-13.7804,34.4587,21.07000000000005,76,93,2.37,MW,1706755453
436,esperanza,19.5847,-70.9849,24.32000000000005,90,95,0.53,DO,1706755453
437,colchani,-20.3,-66.9333,13.050000000000011,58,100,3.22,BO,1706755453
438,nakamura,32.9833,132.9333,14.650000000000034,76,100,1.39,JP,1706755454
439,skovorodino,53.9833,123.9167,-18.159999999999968,71,7,2.42,RU,1706755454
440,vila do maio,15.1333,-23.2167,22.439999999999998,65,47,6.16,CV,1706755454
441,al kharijah,25.4514,30.5464,6.060000000000002,61,0,2.11,EG,1706755454
442,vilyuchinsk,52.9306,158.4028,-12.819999999999993,60,28,1.12,RU,1706755455
443,armacao de buzios,-22.7469,-41.8817,23.03000000000003,91,100,1.1,BR,1706755222
444,khash,28.2211,61.2158,5.010000000000048,52,0,1.43,IR,1706755455
445,bagneres-de-bigorre,43.0667,0.15,3.890000000000043,87,0,3.09,FR,1706755455
446,bikenibeu village,1.3673,173.1241,30.980000000000018,84,75,3.6,KI,1706755456
447,savanna-la-mar,18.219,-78.1332,23.970000000000027,74,31,3.68,JM,1706755456
448,bam,29.106,58.357,6.580000000000041,43,0,0.47,IR,1706755456
449,aykhal,66.0,111.5,-25.00999999999999,100,96,2.51,RU,1706755456
450,eastham,41.8301,-69.9739,1.0100000000000477,76,100,0.45,US,1706755457
451,tozkhurmato,34.8905,44.6299,8.060000000000002,73,52,1.73,IQ,1706755457
452,kimbe,-5.5502,150.1429,30.350000000000023,70,57,3.17,PG,1706755457
453,ketchikan,55.3422,-131.6461,10.260000000000048,87,100,6.69,US,1706755458
454,elliot lake,46.3834,-82.6331,0.18999999999999773,95,100,3.81,CA,1706755458
455,san patricio,28.017,-97.5169,16.920000000000016,77,100,2.85,US,1706755458
456,souillac,-20.5167,57.5167,26.210000000000036,94,40,3.09,MU,1706755458
457,ilhabela,-23.7781,-45.3581,24.08000000000004,91,100,1.21,BR,1706755459
458,priob'ye,62.5206,65.5964,-25.539999999999964,100,100,3.13,RU,1706755459
459,ban huai thalaeng,14.9833,102.65,28.210000000000036,43,28,3.31,TH,1706755459
460,saint-joseph,-21.3667,55.6167,23.210000000000036,88,87,6.99,RE,1706755459
461,cockburn town,21.4612,-71.1419,23.480000000000018,61,2,1.27,TC,1706755460
462,ancud,-41.8697,-73.8203,14.980000000000018,96,12,3.66,CL,1706755460
463,lazaro cardenas,17.9583,-102.2,25.970000000000027,77,100,0.74,MX,1706755197
464,ulsan,35.5372,129.3167,7.110000000000014,78,100,4.77,KR,1706755460
465,ar rass,25.8694,43.4973,11.980000000000018,35,3,5.49,SA,1706755461
466,tromso,69.6496,18.957,2.0100000000000477,80,20,4.12,NO,1706755461
467,burang,30.25,81.1667,-8.399999999999977,91,100,4.17,CN,1706755461
468,hammerfest,70.6634,23.6821,-0.75,86,100,7.2,NO,1706755461
469,yemetsk,63.4721,41.7941,-1.2099999999999795,94,100,4.31,RU,1706755462
470,ovalle,-30.5983,-71.2003,23.05000000000001,64,0,1.07,CL,1706755462
471,barabai,-2.5833,115.3833,30.83000000000004,66,100,1.26,ID,1706755462
472,tual,-5.6667,132.75,28.810000000000002,77,73,7.85,ID,1706755358
473,el bolson,-41.9667,-71.5167,13.580000000000041,91,0,2.32,AR,1706755463
474,muzaffarabad,34.37,73.4711,5.240000000000009,88,100,1.86,PK,1706755463
475,puerto maldonado,-12.6,-69.1833,22.82000000000005,99,100,1.53,PE,1706755463
476,rongelap,11.1635,166.8941,26.450000000000045,83,90,10.65,MH,1706755463
477,chokwe,-24.5333,32.9833,20.82000000000005,93,1,2.4,MZ,1706755464
478,matamoros,25.5333,-103.25,21.060000000000002,34,100,3.6,MX,1706755179
479,guerrero negro,27.9769,-114.0611,18.150000000000034,64,0,4.81,MX,1706755375
480,macusani,-14.0833,-70.4333,5.189999999999998,91,100,1.84,PE,1706755465
481,al ghayzah,16.2079,52.176,23.82000000000005,79,43,3.8,YE,1706755465
482,hovd,48.0056,91.6419,-19.43999999999997,87,99,0.3,MN,1706755465
483,zhangye,38.9342,100.4517,-5.229999999999961,42,100,2.47,CN,1706755466
484,kurnool,15.8309,78.0425,23.590000000000032,72,90,4.11,IN,1706755466
485,taksimo,56.3444,114.8794,-25.44999999999999,85,31,0.42,RU,1706755466
486,huarmey,-10.0681,-78.1522,24.200000000000045,79,97,3.13,PE,1706755466
487,princeville,45.7668,-61.2985,-8.17999999999995,88,0,3.6,CA,1706755466
488,akureyri,65.6835,-18.0878,-5.039999999999964,58,0,1.54,IS,1706755467
489,devarkonda,16.7,78.9333,22.27000000000004,65,38,1.91,IN,1706755467
490,lijiang,26.8688,100.2207,6.439999999999998,49,9,2.26,CN,1706755467
491,undurkhaan,47.3194,110.6556,-23.029999999999973,84,57,3.52,MN,1706755467
492,merizo village,13.2658,144.6691,30.310000000000002,76,95,9.74,GU,1706755468
493,marang,5.2056,103.2059,25.950000000000045,78,96,2.39,MY,1706755468
494,island harbour,50.724,-1.2758,10.82000000000005,93,100,2.24,GB,1706755468
495,holualoa,19.6228,-155.9522,25.910000000000025,79,40,4.12,US,1706755468
496,lewiston orchards,46.3804,-116.9754,12.710000000000036,73,0,1.54,US,1706755469
497,afaahiti,-17.75,-149.2833,26.930000000000007,80,29,6.76,PF,1706755469
498,fort bragg,35.139,-79.006,6.010000000000048,90,0,2.06,US,1706755469
499,elko,41.0002,-115.5012,10.010000000000048,72,100,2.65,US,1706755406
500,nagqu,31.5,92.0,-6.189999999999998,16,100,9.48,CN,1706755470
501,newala kisimani,-10.95,39.2833,19.010000000000048,97,100,0.99,TZ,1706755470
502,paradip garh,20.3167,86.6167,24.360000000000014,66,46,3.06,IN,1706755470
503,amga,60.8953,131.9608,-28.079999999999984,92,98,1.41,RU,1706755470
504,hakui,36.8833,136.7833,7.080000000000041,83,100,6.37,JP,1706755471
505,alofi,-19.0595,-169.9187,28.939999999999998,84,75,3.09,NU,1706755471
506,wajir,1.7471,40.0573,24.55000000000001,67,88,5.09,KE,1706755191
507,vikulovo,56.8167,70.6107,-20.519999999999982,99,100,1.12,RU,1706755472
508,ago-are,8.5,3.4167,25.650000000000034,22,21,2.55,NG,1706755472
509,luanda,-8.8368,13.2343,25.0,89,75,1.03,AO,1706755197
510,aquidauana,-20.4711,-55.7872,24.52000000000004,62,49,1.17,BR,1706755473
511,karauli,26.5,77.0167,17.210000000000036,49,53,1.13,IN,1706755473
512,port saint john's,-31.6229,29.5448,22.010000000000048,88,98,5.28,ZA,1706755473
513,zalingei,12.9096,23.4741,16.170000000000016,27,32,3.7,SD,1706755473
514,saynshand,44.8824,110.1163,-20.50999999999999,73,100,1.31,MN,1706755474
515,vyaz'ma,55.2104,34.2951,0.5300000000000296,99,100,4.24,RU,1706755474
516,tamandare,-8.7597,-35.1047,25.450000000000045,85,36,1.41,BR,1706755474
517,stegaurach,49.8667,10.8333,7.6299999999999955,82,100,5.11,DE,1706755474
518,nipomo,35.0428,-120.476,15.170000000000016,74,75,8.23,US,1706755475
519,sao joao da barra,-21.6403,-41.0511,24.52000000000004,88,100,3.2,BR,1706755475
520,la'ie,21.6477,-157.9253,27.980000000000018,64,49,0.45,US,1706755475
521,paraiso,9.8383,-83.8656,19.480000000000018,96,87,1.97,CR,1706755476
522,midvagur,62.0511,-7.1939,3.4600000000000364,52,75,15.95,FO,1706755476
523,port lincoln,-34.7333,135.8667,21.939999999999998,57,0,5.61,AU,1706755476
524,kolonia,50.9333,6.95,8.920000000000016,86,100,5.14,DE,1706755476
525,ulaangom,49.9811,92.0667,-29.629999999999967,94,83,0.62,MN,1706755476
526,zandvoort,52.3749,4.5341,8.960000000000036,90,40,8.23,NL,1706755477
527,kashgar,39.4547,75.9797,-3.4399999999999977,80,100,4.0,CN,1706755477
528,kiunga,-6.1219,141.2906,33.860000000000014,51,56,2.16,PG,1706755477
529,tadine,-21.55,167.8833,25.930000000000007,73,99,2.4,NC,1706755477
530,palmas de monte alto,-14.2672,-43.1619,24.129999999999995,68,100,1.42,BR,1706755478
531,champoton,19.35,-90.7167,20.310000000000002,74,4,4.43,MX,1706755478
532,puerto aysen,-45.4,-72.7,14.490000000000009,100,100,1.81,CL,1706755478
533,naxos,37.1056,25.3764,12.020000000000039,68,100,11.62,GR,1706755479
534,rio de janeiro,-22.9028,-43.2075,23.0,88,75,3.6,BR,1706755286
535,togur,58.3631,82.8265,-18.24999999999997,97,100,2.68,RU,1706755479
536,novo aripuana,-5.1206,-60.3797,24.450000000000045,97,100,0.87,BR,1706755479
537,kerikeri,-35.2268,173.9474,27.180000000000007,38,0,1.3,NZ,1706755479
538,omagh,54.6,-7.3,4.28000000000003,90,100,2.7,GB,1706755480
539,serenje,-13.2325,30.2352,15.189999999999998,97,13,2.87,ZM,1706755480
540,san juan de miraflores,-12.1629,-76.9635,26.760000000000048,70,99,3.13,PE,1706755480
541,port augusta,-32.5,137.7667,28.629999999999995,26,0,5.94,AU,1706755467
542,acapulco de juarez,16.8634,-99.8901,27.900000000000034,74,20,5.66,MX,1706755318
543,egersund,58.4513,5.9997,3.9399999999999977,78,100,14.26,NO,1706755481
544,manado,1.487,124.8455,30.430000000000007,74,40,2.06,ID,1706755481
545,bairnsdale,-37.8333,147.6167,26.140000000000043,54,3,1.79,AU,1706755481
546,lamu,-2.2717,40.902,26.170000000000016,86,100,3.48,KE,1706755481
547,mitchell,43.7094,-98.0298,0.9900000000000091,86,0,0.0,US,1706755418
548,pochinok,54.4068,32.4407,-1.8199999999999932,99,100,5.42,RU,1706755482
549,kostomuksha,64.571,30.5767,0.020000000000038654,95,100,6.26,RU,1706755482
550,tanque verde,32.2517,-110.7373,20.210000000000036,40,90,2.24,US,1706755482
551,san antonio de pale,-1.4014,5.6325,27.55000000000001,81,100,5.15,GQ,1706755483
552,berdigestyakh,62.0989,126.6992,-28.149999999999977,96,100,1.99,RU,1706755483
553,tchollire,8.4022,14.1698,20.470000000000027,22,62,0.52,CM,1706755483
554,katsuren-haebaru,26.3369,127.8719,25.430000000000007,72,75,4.63,JP,1706755483
555,ebon,4.582,168.6964,28.33000000000004,74,89,1.4,MH,1706755484
556,williams lake,52.1415,-122.1445,11.140000000000043,65,100,10.8,CA,1706755484
557,cheremukhovo,60.3484,59.9851,-16.689999999999998,99,92,1.34,RU,1706755484
558,monroe,43.1501,-77.6831,4.0,84,100,3.6,US,1706755194
559,inari,68.906,27.0288,-0.8899999999999864,91,100,7.27,FI,1706755484
560,sanctuary point,-35.1114,150.629,27.960000000000036,60,1,5.46,AU,1706755485
561,tarrafal,15.2833,-23.7667,22.439999999999998,68,0,5.99,CV,1706755485
562,cururupu,-1.8283,-44.8683,24.870000000000005,97,94,1.38,BR,1706755485
563,six-fours-les-plages,43.0938,5.84,8.580000000000041,83,0,2.76,FR,1706755486
564,pasan,22.85,82.2,17.840000000000032,45,54,0.64,IN,1706755486
565,lauro de freitas,-12.8944,-38.3272,27.010000000000048,78,40,4.63,BR,1706755486
566,quellon,-43.1167,-73.6167,15.260000000000048,94,23,3.61,CL,1706755486
567,orchomenos,38.4929,22.9796,3.2800000000000296,65,3,2.24,GR,1706755487
568,coquimbo,-29.9533,-71.3436,17.850000000000023,88,0,3.09,CL,1706755398
569,coracao de jesus,-16.6853,-44.365,19.510000000000048,97,100,1.76,BR,1706755487
570,ardestan,33.3761,52.3694,1.660000000000025,48,7,1.1,IR,1706755487
571,batesville,35.7698,-91.641,6.080000000000041,78,1,1.82,US,1706755487
572,oranjemund,-28.55,16.4333,18.33000000000004,92,92,4.5,NA,1706755488
573,vieste,41.8825,16.175,9.82000000000005,68,86,4.12,IT,1706755488
574,nova vicosa,-17.8919,-39.3719,25.04000000000002,88,78,3.35,BR,1706755488
575,amahai,-3.3333,128.9167,29.970000000000027,69,52,2.66,ID,1706755488
576,nouadhibou,20.931,-17.0347,19.470000000000027,51,66,5.37,MR,1706755489
577,putian,25.4394,119.0103,22.33000000000004,78,96,2.05,CN,1706755263
578,keflavik,64.0049,-22.5624,0.2400000000000091,86,100,4.63,IS,1706755489
579,santa elena de uairen,4.6167,-61.1333,22.54000000000002,71,70,1.27,VE,1706755489
580,ghadamis,30.1337,9.5007,8.520000000000039,61,0,3.25,LY,1706755490
581,ulricehamn,57.7916,13.4142,2.4500000000000455,90,76,7.69,SE,1706755490
582,kasangulu,-4.5911,15.1708,22.52000000000004,95,100,1.07,CD,1706755490
583,murun-kuren,49.6342,100.1625,-18.549999999999983,88,75,1.39,MN,1706755490
584,savannakhet,16.566,104.751,23.010000000000048,78,75,2.06,LA,1706755491
585,port shepstone,-30.7414,30.455,22.650000000000034,84,78,8.1,ZA,1706755491
586,cartagena del chaira,1.3349,-74.8429,26.480000000000018,64,75,0.81,CO,1706755491
587,callao,-12.0667,-77.15,27.620000000000005,69,75,7.2,PE,1706755492
588,bodo,67.28,14.405,3.0200000000000387,78,100,9.26,NO,1706755492
589,monte argentario,42.4345,11.1195,2.890000000000043,79,87,2.45,IT,1706755492
590,plettenberg bay,-34.0527,23.3716,20.02000000000004,89,46,2.78,ZA,1706755492
591,villa bruzual,9.3328,-69.1208,26.980000000000018,66,46,2.62,VE,1706755492
592,sferracavallo,42.726,12.0956,8.25,92,100,1.04,IT,1706755493
